{
  "Monday": [
    {"type": "free", "length": 2},
    {"type": "laboratory", "length": 2, "name": "Embedded Systems", "hours": "10:15 - 12:00"},
    {"type": "free", "length": 2},
    {"type": "laboratory", "length": 2, "name": "Computer Aided\nDesign", "hours": "14:15 - 16:00"},
    {"type": "lecture", "length": 1, "name": "Computer Aided\nDesign", "hours": "16:15 - 17:00"},
    {"type": "free", "length": 3},
  ],
  "Tuesday": [
    {"type": "free", "length": 12},
  ],
  "Wednesday": [
    {"type": "lecture", "length": 2, "name": "Embedded Systems", "hours": "8:15 - 10:00"},
    {"type": "free", "length": 4},
    {"type": "laboratory", "length": 2, "name": "Computer Graphics", "hours": "14:15 - 16:00"},
    {"type": "free", "length": 4},
  ],
  "Thursday": [
    {"type": "lecture", "length": 2, "name": "Computer Graphics", "hours": "8:15 - 10:00"},
    {"type": "lecture", "length": 2, "name": "Operating Systems", "hours": "10:15 - 12:00"},
    {"type": "laboratory", "length": 2, "name": "Operating Systems", "hours": "12:15 - 14:00"},
    {"type": "free", "length": 1},
    {"type": "lecture", "length": 2, "name": "Computer Networks", "hours": "15:15 - 17:00"},
    {"type": "laboratory", "length": 2, "name": "Computer Networks", "hours": "17:15 - 19:00"},
    {"type": "free", "length": 1},
  ],
  "Friday": [
    {"type": "free", "length": 4},
    {"type": "lecture", "length": 1, "name": "GUI\nProgramming", "hours": "12:15 - 13:00"},
    {"type": "laboratory", "length": 2, "name": "GUI Programming", "hours": "13:15 - 15:00"},
    {"type": "free", "length": 5},
  ],
  "Saturday": [
    {"type": "free", "length": 12},
  ],
  "Sunday": [
    {"type": "free", "length": 12},
  ]
}
